cnt_presa,PK_IdPresaSIH,clave,NombrePresa,nombrecomun,Estado,Abr_Edo,Municipio,regioncna,Longitud,Latitud,uso,corriente,tipovertedor,inicioop,alturacortina,elevcorona,bordolibre,nameelev,namealmac,namoelev,CapacidadNAMO,llenano,elevacionactual,namoalmac,datee,fecha,fechaWF,anio,mes,dia,dailyvalue,diferencia,imagen
1,1,ABRAG,"Abelardo L. Rodríguez, Ags.","Abelardo L. Rodríguez, Ags.",Aguascalientes,Ags.      ,Jesús María,Lerma Santiago Pacífico,-102.427778,21.916944,RI,R. Morcinique,Libre,1934,CONAGUA,1890.2,1.470,1890.000,18.840,1888.900,16.043,0.452459919680417,1884.320,16.043,2019-06-30 00:00:00.000,30/06/2019,2019/06/30,2019,6,30,7.259,8.784,ABRAG.jpg
1,192,ACHZC,"Achimec, Zac.","Vaqueros, Jal.",Jalisco,Jal.      ,Huejúcar,Lerma Santiago Pacífico,-103.225278,22.327222,RI,R. Huejucar,Libre,1969,CONAGUA,1846.3,2.030,1844.270,12.212,1841.500,7.364,0.471754491279688,1838.160,7.364,2019-06-30 00:00:00.000,30/06/2019,2019/06/30,2019,6,30,3.474,3.890,ACHZC.jpg
1,53,AFIGR,"Andrés Figueroa, Gro.","Las Garzas, Gro.",Guerrero,Gro.      ,Ajuchitlán del Progreso,Balsas,-100.5175,18.075833,RI,R. Ajuchitán,Libre,1984,CONAGUA,385,2.390,382.610,133.029,377.000,102.500,0.544780487804878,365.200,102.500,2019-06-30 00:00:00.000,30/06/2019,2019/06/30,2019,6,30,55.840,46.660,AFIGR.jpg
1,134,AGMNR,"Aguamilpa Solidaridad, Nay.","Aguamilpa, Nay.",Nayarit,Nay.      ,Tepic,Lerma Santiago Pacífico,-104.802222,21.839167,GH,R. Santiago,Contr,1993,CFE,235,3.000,232.000,6950.000,220.000,5540.000,0.708584837545126,202.930,5540.000,2019-06-30 00:00:00.000,30/06/2019,2019/06/30,2019,6,30,3925.560,1614.440,AGMNR.jpg
1,94,AGOMC,"Agostitlán, Mich.","Mata de Pinos, Mich.",Michoacán,Mich.     ,Hidalgo,Balsas,-100.608889,19.579722,RI,A. El Chaparro,Libre,1955,CONAGUA,2379,1.160,2377.840,18.754,2376.600,15.675,0.400765550239234,2371.600,15.675,2019-06-30 00:00:00.000,30/06/2019,2019/06/30,2019,6,30,6.282,9.393,AGOMC.jpg
1,12,AGZCH,"Abraham González, Chih.","Guadalupe, Chih.",Chihuahua,Chih.     ,Guerrero,Noroeste,-107.482778,28.481667,RI,R. Papigochi,Libre,1961,CONAGUA,2052.9,1.600,2051.300,102.891,2047.800,79.354,0.586448068150314,2042.030,79.354,2019-06-30 00:00:00.000,30/06/2019,2019/06/30,2019,6,30,46.537,32.817,AGZCH.jpg
1,152,ALMSI,"Adolfo López Mateos, Sin.","El Humaya o El Varejonal, Sin.",Sinaloa,Sin.      ,Badiraguato,Pacífico Norte,-107.388333,25.101389,AP/RI,R. Humaya,Libre,1964,CONAGUA,186.5,3.020,183.480,4034.520,176.000,3086.610,0.152826558451856,141.080,3086.610,2019-06-30 00:00:00.000,30/06/2019,2019/06/30,2019,6,30,471.716,2614.894,ALMSI.jpg
1,9,ALRBN,"Abelardo L. Rodríguez, B.C.","Tijuana, B.C.",Baja California,B.C.      ,Tijuana,Península de Baja California,-116.908333,32.444722,AP,R. Tijuana,Contr,1937,CONAGUA,127,2.000,125.000,121.392,115.850,76.900,0.181638491547464,96.630,76.900,2019-06-30 00:00:00.000,30/06/2019,2019/06/30,2019,6,30,13.968,62.932,ALRBN.jpg
1,95,AMEMC,"Aristeo Mercado, Mich.","Wilson ,Mich.",Michoacán,Mich.     ,Jiménez,Lerma Santiago Pacífico,-101.661111,19.926111,RI,A. sin nombre,Libre,1926,CONAGUA,1999.83,6.030,1993.800,28.305,1993.500,25.344,0.239109848484848,1990.920,25.344,2019-06-30 00:00:00.000,30/06/2019,2019/06/30,2019,6,30,6.060,19.284,AMEMC.jpg
1,28,ANGCP,"Doctor Belisario Domínguez, Chis.","La Angostura, Chis.",Chiapas,Chis.     ,Acala,Frontera Sur,-92.778889,16.401389,GH,R. Grijalva,Contr,1976,CFE,543,3.500,539.500,19736.430,533.000,15549.160,0.572314517311546,520.270,15549.160,2019-06-30 00:00:00.000,30/06/2019,2019/06/30,2019,6,30,8899.010,6650.150,ANGCP.jpg
1,171,AOBSO,"Álvaro Obregón, Son.","Oviachic, Son.",Sonora,Son.      ,Cajeme,Noroeste,-109.8925,27.8225,AP/GH/RI,R. Yaqui,Libre,1952,CONAGUA,115.1,2.900,112.200,4478.215,105.500,3023.140,0.374302877140986,91.970,3023.140,2019-06-30 00:00:00.000,30/06/2019,2019/06/30,2019,6,30,1131.570,1891.570,AOBSO.jpg
1,33,APRDR,"Ing. Benjamín Ortega Cantero, Dgo.","Agua Puerca, Dgo.",Durango,Dgo.      ,Hidalgo,Cuencas Centrales del Norte,-104.493889,26.226389,RI,A. Grande del Derrame,Libre,1984,CONAGUA,1436.4,2.300,1434.100,56.060,1430.200,30.764,0.261701989338188,1424.150,30.764,2019-06-30 00:00:00.000,30/06/2019,2019/06/30,2019,6,30,8.051,22.713,APRDR.jpg
1,172,ARCSO,"Adolfo Ruíz Cortínes, Son.","Mocúzari, Son.",Sonora,Son.      ,Alamos,Noroeste,-109.106667,27.226111,AP/GH/RI,R. Mayo,Mixto,1955,CONAGUA,148,2.530,145.470,1822.141,136.300,1039.610,0.153766316214734,115.200,1039.610,2019-06-30 00:00:00.000,30/06/2019,2019/06/30,2019,6,30,159.857,879.753,ARCSO.jpg
1,173,ARLSO,"Abelardo Rodríguez Lujan, Son.","Hermosillo, Son.",Sonora,Son.      ,Hermosillo,Noroeste,-110.92,29.076667,AP,R. Sonora,Contr,1948,CONAGUA,231.6,3.200,228.400,284.470,226.980,219.520,0.00000455539358600583,214.160,219.520,2019-06-30 00:00:00.000,30/06/2019,2019/06/30,2019,6,30,.001,219.519,ARLSO.jpg
1,68,BBAJL,"Basilio Vadillo, Jal.","Las Piedras, Jal.",Jalisco,Jal.      ,El Limón,Lerma Santiago Pacífico,-104.061111,19.913611,RI,R. Tuxcacuesco,Libre,1973,CONAGUA,982.8,2.700,978.970,146.888,974.350,124.750,0.501490981963928,958.000,124.750,2019-06-30 00:00:00.000,30/06/2019,2019/06/30,2019,6,30,62.561,62.189,BBAJL.jpg
1,139,BDDPB,"Manuel Ávila Camacho, Pue.","Valsequillo o Balcón del Diablo, Pue.",Puebla,Pue.      ,Puebla,Balsas,-98.108611,18.9125,RI,R. Atoyac,Libre,1946,CONAGUA,2064,2.000,2062.000,391.489,2059.020,300.654,0.877024752705768,2057.610,300.654,2019-06-30 00:00:00.000,30/06/2019,2019/06/30,2019,6,30,263.681,36.973,BDDPB.jpg
1,193,BTEZC,"Ramón López Velarde, Zac.","Boca del Tesorero, Zac.",Zacatecas,Zac.      ,Jerez,Lerma Santiago Pacífico,-102.953333,22.824167,RI,R. Jeréz,Libre,1975,CONAGUA,2100.5,2.340,2098.160,36.744,2096.000,26.220,0.64012206100446,2093.540,26.220,2019-06-30 00:00:00.000,30/06/2019,2019/06/30,2019,6,30,16.784,9.436,BTEZC.jpg
1,34,CBRDR,"Caboraca, Dgo.","Canoas, Dgo.",Durango,Dgo.      ,Canatlán,Pacífico Norte,-104.810278,24.538333,RI,R. La Sauceda,Libre,1992,CONAGUA,2003.75,2.470,2001.280,57.880,1998.250,45.000,0.703111111111111,1994.740,45.000,2019-06-30 00:00:00.000,30/06/2019,2019/06/30,2019,6,30,31.640,13.360,CBRDR.jpg
1,131,CCHNL,"Cuchillo Solidaridad, N.L.","El Cuchillo, N.L.",Nuevo León,N.L.      ,China,Río Bravo,-99.276944,25.711667,AP/RI,R. San Juan,Contr,1994,CONAGUA,169.2,3.000,166.660,1784.290,162.350,1123.140,0.739957618818669,159.860,1123.140,2019-06-30 00:00:00.000,30/06/2019,2019/06/30,2019,6,30,831.076,292.064,CCHNL.jpg
1,135,CDOOX,"Miguel de la Madrid Hurtado, Oax.","Cerro de Oro, Oax.",Oaxaca,Oax.      ,San Lucas Ojitlán,Golfo Centro,-96.263611,17.999167,CA,R. Papaloapan,Contr,1988,CONAGUA,75.6,2.800,72.800,4117.450,64.860,2599.510,0.430623463652765,53.910,2599.510,2019-06-30 00:00:00.000,30/06/2019,2019/06/30,2019,6,30,1119.410,1480.100,CDOOX.jpg
1,3,CDRAG,"La Codorniz, Ags.","La Codorniz, Ags.",Aguascalientes,Ags.      ,Calvillo,Lerma Santiago Pacífico,-102.676944,21.9975,RI,R. De La Labor,Libre,1966,CONAGUA,1840,2.240,1837.760,6.528,1836.000,5.366,0.549012281711047,1831.160,5.366,2019-06-30 00:00:00.000,30/06/2019,2019/06/30,2019,6,30,2.946,2.420,CDRAG.jpg
1,29,CHICP,"Manuel Moreno Torres, Chis.","Chicoasén, Chis.",Chiapas,Chis.     ,Osumacinta,Frontera Sur,-93.100556,16.941667,GH,R. Grijalva,Contr,1980,CFE,405,7.000,395.000,1443.090,392.500,1384.860,0.990865502650087,391.950,1384.860,2019-06-30 00:00:00.000,30/06/2019,2019/06/30,2019,6,30,1372.210,12.650,CHICP.jpg
1,194,CHIZC,"El Chique, Zac.","El Chique, Zac.",Zacatecas,Zac.      ,Tabasco,Lerma Santiago Pacífico,-102.896111,21.997222,RI,R. Juchipila,Libre,1958,CONAGUA,1588.48,2.000,1586.480,192.567,1580.180,138.909,0.829478311953372,1576.990,138.909,2019-06-30 00:00:00.000,30/06/2019,2019/06/30,2019,6,30,115.222,23.687,CHIZC.jpg
1,69,CHLJL,"Chila, Jal.","Chila, Jal.",Jalisco,Jal.      ,Zapotlán del Rey,Lerma Santiago Pacífico,-102.944167,20.489722,RI,A. Chila,Libre,1945,CONAGUA,1525.88,1.000,99.000,1.000,98.700,.762,0.330708661417323,95.600,.762,2019-06-30 00:00:00.000,30/06/2019,2019/06/30,2019,6,30,.252,.510,CHLJL.jpg
1,96,CHLMC,"Constitución de Apatzingán, Mich.","Chilatán, Mich.",Michoacán,Mich.     ,Jilotlán de los Dolores,Balsas,-102.774167,19.287778,RI,R. Grande,Libre,1990,CONAGUA,440,2.320,437.680,807.150,429.450,590.025,0.467637792607198,411.780,590.025,2019-06-30 00:00:00.000,30/06/2019,2019/06/30,2019,6,30,275.918,314.107,CHLMC.jpg
1,174,CHTSO,"Cuauhtémoc, Son.","Santa Teresa, Son.",Sonora,Son.      ,Tubutama,Noroeste,-111.516389,30.873333,RI,R. Altar,Libre,1950,CONAGUA,603,2.750,600.250,66.330,597.000,41.470,0.0637569308457129,586.600,41.470,2019-06-30 00:00:00.000,30/06/2019,2019/06/30,2019,6,30,2.644,38.826,CHTSO.jpg
1,13,CHUCH,"Chihuahua, Chih.","Chihuahua, Chih.",Chihuahua,Chih.     ,Chihuahua,Río Bravo,-106.167778,28.570556,AP,R. Chuviscar,Libre,1960,CONAGUA,1546,1.720,1544.280,35.631,1540.820,23.383,0.650814710574541,1537.710,23.383,2019-06-30 00:00:00.000,30/06/2019,2019/06/30,2019,6,30,15.218,8.165,CHUCH.jpg
1,189,CHYVC,"Paso de Piedras, Ver.","Chicayán, Ver.",Veracruz,Ver.      ,Pánuco,Golfo Norte,-98.155833,21.7375,RI,R. Chicayán,Contr,1979,CONAGUA,32.25,3.970,28.280,572.320,22.180,180.000,0.506672222222222,19.660,180.000,2019-06-30 00:00:00.000,30/06/2019,2019/06/30,2019,6,30,91.201,88.799,CHYVC.jpg
1,21,CILAAMSMX,"Internacional La Amistad, Coah.","La Amistad, Coah.",Coahuila,Coah.     ,Acuña,Río Bravo,-101.057222,29.446944,AP/RI,R. Bravo,Contr,1968,CILA,351.22,.000,349.030,2707.437,340.460,1769.660,0.131639410960297,331.280,1769.660,2019-06-30 00:00:00.000,30/06/2019,2019/06/30,2019,6,30,232.957,1536.703,CILAAMSMX.jpg
1,181,CILAFLCMX,"Internacional Falcón, Tamps.","Falcón, Tamps.",Tamaulipas,Tamps.    ,Guerrero,Río Bravo,-99.170556,26.560278,AP/RI,R. Bravo,Contr,1953,CILA,98.45,.000,93.482,1607.962,91.810,1351.630,0.196203102920178,82.355,1351.630,2019-06-30 00:00:00.000,30/06/2019,2019/06/30,2019,6,30,265.194,1086.436,CILAFLCMX.jpg
1,205,CJNNR,"Leonardo Rodríguez Alcaine, Nay.","Leonardo Rodríguez Alcáine, Nay.",Nayarit,Nay.      ,La Yesca,Lerma Santiago Pacífico,-104.450833,21.428333,GH,R. Santiago,Contr,2006,CFE,394.5,.500,394.000,2393.107,391.000,2282.130,0.582451481729788,361.520,2282.130,2019-06-30 00:00:00.000,30/06/2019,2019/06/30,2019,6,30,1329.230,952.900,CJNNR.jpg
1,211,CLNCH,"Ing. Andrew Weiss, Chih.","Colina, Chih.",Chihuahua,Chih.     ,San Francisco de Conchos,Río Bravo,-105.382222,27.576389,RI,R. Conchos,Libre,1926,CONAGUA,1251,1.150,1249.850,26.970,1249.100,23.670,1.0323616358782,1249.280,23.670,2019-06-30 00:00:00.000,30/06/2019,2019/06/30,2019,6,30,24.436,-.766,CLNCH.jpg
1,117,CNPMX,"La Concepción, Méx.","La Concepción, Méx.",Estado de México,Méx.      ,Tepotzotlán,Aguas del Valle de México,-99.304444,19.695,RI,R. Tepotzotlán,Libre,1949,CONAGUA,2355.64,3.100,2352.540,12.599,2352.100,12.111,0.417636859053753,2343.380,12.111,2019-06-30 00:00:00.000,30/06/2019,2019/06/30,2019,6,30,5.058,7.053,CNPMX.jpg
1,146,CNSQT,"Constitución de 1917, Qro.","Hidalgo, Qro.",Querétaro,Qro.      ,San Juan del Río,Golfo Norte,-100.080278,20.418611,RI,Dren Caracol,Contr,1969,CONAGUA,1937,1.550,1928.390,76.461,1927.060,66.080,0.211985472154964,1917.770,66.080,2019-06-30 00:00:00.000,30/06/2019,2019/06/30,2019,6,30,14.008,52.072,CNSQT.jpg
1,22,CNTCL,"El Centenario, Coah.","El Centenario, Coah.",Coahuila,Coah.     ,Jiménez,Río Bravo,-100.95,29.213611,RI,R. San Diego,Libre,1935,CONAGUA,338,1.620,336.380,25.711,336.150,24.589,0.96657039007524,335.980,24.589,2019-06-30 00:00:00.000,30/06/2019,2019/06/30,2019,6,30,23.767,.822,CNTCL.jpg
1,147,CNTQT,"El Centenario, Qro.","El Centenario, Qro.",Querétaro,Qro.      ,Tequisquiapan,Golfo Norte,-99.897778,20.513333,RI,R. San Juan,Mixto,1910,CONAGUA,1898,.510,1882.500,14.178,1881.550,9.781,0.329516409365096,1879.140,9.781,2019-06-30 00:00:00.000,30/06/2019,2019/06/30,2019,6,30,3.223,6.558,CNTQT.jpg
1,97,COIMC,"Coíntzio, Mich.","Cointzio, Mich.",Michoacán,Mich.     ,Morelia,Lerma Santiago Pacífico,-101.259167,19.629722,AP/RI,R. Grande de Morelia,Contr,1939,CONAGUA,1997,1.500,2001.320,79.233,1995.970,50.840,0.692191188040913,1992.260,50.840,2019-06-30 00:00:00.000,30/06/2019,2019/06/30,2019,6,30,35.191,15.649,COIMC.jpg
1,98,CPAMC,"Copándaro, Mich.","Copándaro de Dolores, Mich.",Michoacán,Mich.     ,Jiquilpan,Lerma Santiago Pacífico,-102.861389,20.001667,RI,R. La Patera,Libre,1927,CONAGUA,1999,9.790,1989.209,9.717,1987.659,2.752,0.17296511627907,1986.350,2.752,2019-06-30 00:00:00.000,30/06/2019,2019/06/30,2019,6,30,.476,2.276,CPAMC.jpg
1,70,CPEJL,"Cajón de Peña, Jal.","Tomatlán, Jal.",Jalisco,Jal.      ,Tomatlán,Lerma Santiago Pacífico,-105.129722,19.9975,RI,R. Tomatlán,Contr,1976,CONAGUA,142,2.800,139.200,707.620,129.370,442.760,0.506642424789954,118.810,442.760,2019-06-30 00:00:00.000,30/06/2019,2019/06/30,2019,6,30,224.321,218.439,CPEJL.jpg
1,132,CPRNL,"José López Portillo, N.L.","Cerro Prieto, N.L.",Nuevo León,N.L.      ,Linares,Río Bravo,-99.399722,24.9375,AP,A. Pablillo - Hualauises,Contr,1984,CONAGUA,288,2.500,285.500,393.000,282.520,300.000,0.452223333333333,275.120,300.000,2019-06-30 00:00:00.000,30/06/2019,2019/06/30,2019,6,30,135.667,164.333,CPRNL.jpg
1,10,CRRBN,"El Carrizo, B.C.","El Carrizo, B.C.",Baja California,B.C.      ,Tijuana,Península de Baja California,-116.696944,32.479444,AP,A. Carrizo,Libre,1978,CONAGUA,288.34,2.120,286.220,44.585,284.700,40.866,0.65753925653451,278.200,40.866,2019-06-30 00:00:00.000,30/06/2019,2019/06/30,2019,6,30,26.871,13.995,CRRBN.jpg
1,71,CRTJL,"El Cuarenta, Jal.","El Cuarenta, Jal.",Jalisco,Jal.      ,Lagos de Moreno,Lerma Santiago Pacífico,-101.7375,21.497778,RI,A. Azul,Libre,1949,CONAGUA,2004,2.050,2001.950,38.960,1998.750,30.625,0.645126530612245,1994.170,30.625,2019-06-30 00:00:00.000,30/06/2019,2019/06/30,2019,6,30,19.757,10.868,CRTJL.jpg
1,72,CUQJL,"Cuquío, Jal.","Los Gigantes, Jal.",Jalisco,Jal.      ,Cuquío,Lerma Santiago Pacífico,-103.039444,20.948056,RI,A. Achichilco,Libre,1967,CONAGUA,1808.5,1.920,1806.580,8.850,1805.500,7.500,0.576666666666667,1802.700,7.500,2019-06-30 00:00:00.000,30/06/2019,2019/06/30,2019,6,30,4.325,3.175,CUQJL.jpg
1,99,DBOMC,"El Bosque, Mich.","El Bosque, Mich.",Michoacán,Mich.     ,Zitácuaro,Balsas,-100.421111,19.387778,AP,R. San Juan,Libre,1954,CONAGUA,1745,2.000,1743.000,250.500,1741.400,202.515,0.464933461718885,1729.720,202.515,2019-06-30 00:00:00.000,30/06/2019,2019/06/30,2019,6,30,94.156,108.359,DBOMC.jpg
1,100,DGNMC,"De Gonzalo, Mich.","De Gonzalo, Mich.",Michoacán,Mich.     ,Vista Hermosa,Lerma Santiago Pacífico,-102.436944,20.304444,RI,A. sin nombre,Libre,1890,CONAGUA,1535.83,.930,1534.900,10.000,1533.880,8.837,0.397759420617857,1532.890,8.837,2019-06-30 00:00:00.000,30/06/2019,2019/06/30,2019,6,30,3.515,5.322,DGNMC.jpg
1,118,DNXMX,"Danxhó, Méx.","Danxhó, Méx.",Estado de México,Méx.      ,Jilotepec,Aguas del Valle de México,-99.559722,19.884722,RI,R. Coscomate,Libre,1951,CONAGUA,2455.6,.470,2455.130,32.670,2454.000,31.720,0.498076923076923,2450.060,31.720,2019-06-30 00:00:00.000,30/06/2019,2019/06/30,2019,6,30,15.799,15.921,DNXMX.jpg
1,153,EBLSI,"Lic. Eustaquio Buelna, Sin.","Guamúchil, Sin.",Sinaloa,Sin.      ,Salvador Alvarado,Pacífico Norte,-108.065556,25.484722,AP/RI,R. Mocorito,Contr,1972,CONAGUA,71.2,2.350,68.850,264.950,63.540,80.080,0.119055944055944,57.910,80.080,2019-06-30 00:00:00.000,30/06/2019,2019/06/30,2019,6,30,9.534,70.546,EBLSI.jpg
1,54,ECAGR,"Ing. Carlos Ramírez Ulloa, Gro.","El Caracol, Gro.",Guerrero,Gro.      ,General Heliodoro Castillo,Balsas,-99.995556,17.947778,GH,R. Balsas,Contr,1986,CFE,526,2.400,523.600,1202.398,520.000,1040.880,0.67925024978864,510.570,1040.880,2019-06-30 00:00:00.000,30/06/2019,2019/06/30,2019,6,30,707.018,333.862,ECAGR.jpg
1,73,EGCJL,"Ing. Elías González Chávez, Jal.","Puente Calderón, Jal.",Jalisco,Jal.      ,Zapotlanejo,Lerma Santiago Pacífico,-102.976111,20.681389,AP,R. Calderón,Libre,1991,CONAGUA,1622,2.000,1620.000,100.000,1618.000,80.000,0.5798375,1613.900,80.000,2019-06-30 00:00:00.000,30/06/2019,2019/06/30,2019,6,30,46.387,33.613,EGCJL.jpg
1,55,EGLGR,"El Gallo, Gro.","El Gallo, Gro.",Guerrero,Gro.      ,Cutzamala de Pinzón,Balsas,-100.671111,18.703056,GH/RI,R. Cutzamala,Libre,1998,CONAGUA,370.5,2.500,368.000,545.966,362.780,400.039,0.774104521974252,358.800,400.039,2019-06-30 00:00:00.000,30/06/2019,2019/06/30,2019,6,30,309.672,90.367,EGLGR.jpg
1,195,ELCZC,"El Cazadero, Zac.","El Cazadero, Zac",Zacatecas,Zac.      ,Río Grande,Cuencas Centrales del Norte,-103.098333,23.693333,RI,R. Aguanaval,Libre,1964,CONAGUA,1920.12,1.500,1919.940,44.680,1916.000,22.178,0.333258191352189,1911.880,22.178,2019-06-30 00:00:00.000,30/06/2019,2019/06/30,2019,6,30,7.391,14.787,ELCZC.jpg
1,164,ELOSL,"Cañada del Lobo, S.L.P.","Cañada del Lobo, S.L.P.",San Luis Potosí,S.L.P.    ,San Luis Potosí,Cuencas Centrales del Norte,-100.9675,22.094722,CA,R. Españita,Libre,1987,CONAGUA,1963.7,1.550,1962.150,2.178,1958.800,1.246,0.528892455858748,1955.950,1.246,2019-06-30 00:00:00.000,30/06/2019,2019/06/30,2019,6,30,.659,.587,ELOSL.jpg
1,165,ELPSL,"Gonzalo N. Santos, S.L.P.","El Peaje, S.L.P.",San Luis Potosí,S.L.P.    ,San Luis Potosí,Cuencas Centrales del Norte,-101.098611,22.092222,AP,A. Grande o Azul,Libre,1953,CONAGUA,2049.6,1.730,2047.870,9.054,2044.850,6.685,0.180852655198205,2033.270,6.685,2019-06-30 00:00:00.000,30/06/2019,2019/06/30,2019,6,30,1.209,5.476,ELPSL.jpg
1,11,ELZBN,"Emilio López Zamora, B.C.","Ensenada, B.C.",Baja California,B.C.      ,Ensenada,Península de Baja California,-116.6025,31.890278,AP,A. Ensenada,Libre,1978,CONAGUA,27,1.740,25.260,6.342,19.890,2.732,1.02415808372908,20.040,2.732,2019-06-30 00:00:00.000,30/06/2019,2019/06/30,2019,6,30,2.798,-.066,ELZBN.jpg
1,61,ENDHD,"Endhó, Hgo.","Endhó, Hgo.",Hidalgo,Hgo.      ,Tepetitlán,Aguas del Valle de México,-99.36,20.163889,RI,R. Tula,Libre,1951,CONAGUA,2023,3.000,2020.000,208.650,2018.000,182.900,0.511612903225806,2009.610,182.900,2019-06-30 00:00:00.000,30/06/2019,2019/06/30,2019,6,30,93.574,89.326,ENDHD.jpg
1,45,EPLGJ,"El Palote, Gto.","El Palote, Gto.",Guanajuato,Gto.      ,León,Lerma Santiago Pacífico,-101.678889,21.173611,AP,R. De Los Gómez,Libre,1954,CONAGUA,1839.5,.900,1838.600,17.161,1836.150,9.643,0.623146323758167,1834.740,9.643,2019-06-30 00:00:00.000,30/06/2019,2019/06/30,2019,6,30,6.009,3.634,EPLGJ.jpg
1,166,EPOSL,"El Potosino, S.L.P.","El Potosino, S.L.P.",San Luis Potosí,S.L.P.    ,San Luis Potosí,Cuencas Centrales del Norte,-101.078056,22.099722,RI,A. El Potosino,Libre,1990,CONAGUA,2000.85,.150,2000.850,5.199,1996.800,3.293,0.419981781721672,1990.870,3.293,2019-06-30 00:00:00.000,30/06/2019,2019/06/30,2019,6,30,1.383,1.910,EPOSL.jpg
1,180,ERCTP,"Estudiante Ramiro Caballero Dorantes, Tamps.","Las Ánimas, Tamps.",Tamaulipas,Tamps.    ,González,Golfo Norte,-98.691667,22.605,AP/RI,A. Las Ánimas,Libre,1976,CONAGUA,55,2.450,52.550,654.370,51.700,564.041,0.358970358537766,46.890,564.041,2019-06-30 00:00:00.000,30/06/2019,2019/06/30,2019,6,30,202.474,361.567,ERCTP.jpg
1,14,ERECH,"El Rejón, Chih.","El Rejón, Chih.",Chihuahua,Chih.     ,Chihuahua,Río Bravo,-106.119444,28.614722,AP,A. El Rejón,Libre,1966,CONAGUA,1479.8,1.480,1478.320,7.755,1477.000,6.528,0.645680147058824,1474.010,6.528,2019-06-30 00:00:00.000,30/06/2019,2019/06/30,2019,6,30,4.215,2.313,ERECH.jpg
1,75,ESLJL,"El Salto, Jal.","El Salto, Jal.",Jalisco,Jal.      ,Valle de Guadalupe,Lerma Santiago Pacífico,-102.705,21.037222,AP,R. El Salto,Libre,1940,CONAGUA,1814.5,2.000,1812.500,118.540,1810.160,85.000,0.958752941176471,1809.830,85.000,2019-06-30 00:00:00.000,30/06/2019,2019/06/30,2019,6,30,81.494,3.506,ESLJL.jpg
1,76,ESTJL,"El Estribón, Jal.","El Estribón, Jal.",Jalisco,Jal.      ,Yahualica de González Gallo,Lerma Santiago Pacífico,-102.900556,21.185556,RI,A. Las Pilas,Libre,1946,CONAGUA,1882.5,1.090,1881.410,7.740,1880.000,6.378,0.791470707446787,1878.150,6.378,2019-06-30 00:00:00.000,30/06/2019,2019/06/30,2019,6,30,5.048,1.330,ESTJL.jpg
1,196,EXCZC,"Miguel Alemán, Zac.","Excamé, Zac.",Zacatecas,Zac.      ,Tepechitlán,Lerma Santiago Pacífico,-103.35,21.645833,RI,R. Tlaltenango,Contr,1949,CONAGUA,1707,2.500,1704.500,70.920,1699.500,44.530,0.374084886593308,1691.450,44.530,2019-06-30 00:00:00.000,30/06/2019,2019/06/30,2019,6,30,16.658,27.872,EXCZC.jpg
1,15,FIMCH,"Francisco I. Madero, Chih.","Las Vírgenes, Chih.",Chihuahua,Chih.     ,Rosales,Río Bravo,-105.628889,28.166111,RI,R. San Pedro,Libre,1949,CONAGUA,1243.8,1.240,1242.560,477.622,1239.300,355.286,0.442975504921314,1232.190,355.286,2019-06-30 00:00:00.000,30/06/2019,2019/06/30,2019,6,30,157.383,197.903,FIMCH.jpg
1,35,FVLDR,"Francisco Villa, Dgo.","El Bosque, Dgo.",Durango,Dgo.      ,Poanas,Pacífico Norte,-103.960833,24.001667,RI,R. Poanas,Libre,1968,CONAGUA,1998.7,2.570,1996.130,96.570,1993.000,73.260,0.786418213486615,1990.510,73.260,2019-06-30 00:00:00.000,30/06/2019,2019/06/30,2019,6,30,57.613,15.647,FVLDR.jpg
1,36,FZRDR,"Francisco Zarco, Dgo.","Las Tórtolas, Dgo.",Durango,Dgo.      ,Cuencamé,Cuencas Centrales del Norte,-103.773611,25.270833,RI,R. Nazas,Contr,1968,CONAGUA,1213,2.950,1210.050,383.160,1208.200,309.240,0.545239943086276,1203.660,309.240,2019-06-30 00:00:00.000,30/06/2019,2019/06/30,2019,6,30,168.610,140.630,FZRDR.jpg
1,154,GBESI,"Ing. Guillermo Blake Águilar, Sin.","El Sabinal, Sin.",Sinaloa,Sin.      ,Sinaloa,Pacífico Norte,-108.3275,26.103056,AP/RI,A. Ocoroni,Libre,1985,CONAGUA,201.2,4.590,196.610,469.200,188.450,294.578,0.223095411062605,168.750,294.578,2019-06-30 00:00:00.000,30/06/2019,2019/06/30,2019,6,30,65.719,228.859,GBESI.jpg
1,119,GDLMX,"Sierra de Guadalupe, Méx.","Guadalupe,Méx.",Estado de México,Méx.      ,Cuautitlán Izcalli,Aguas del Valle de México,-99.252222,19.635556,RI,R. Cuautitlán,Libre,1936,CONAGUA,2308.75,1.930,2306.820,64.080,2305.200,56.910,0.374064312071692,2294.900,56.910,2019-06-30 00:00:00.000,30/06/2019,2019/06/30,2019,6,30,21.288,35.622,GDLMX.jpg
1,155,GDOSI,"Gustavo Díaz Ordaz, Sin.","Bacurato, Sin.",Sinaloa,Sin.      ,Sinaloa,Pacífico Norte,-107.911111,25.856667,AP/GH/RI,R. Sinaloa,Contr,1981,CONAGUA,256,3.500,252.500,2687.074,237.060,1618.750,0.202627335907336,204.100,1618.750,2019-06-30 00:00:00.000,30/06/2019,2019/06/30,2019,6,30,328.003,1290.747,GDOSI.jpg
1,46,GLNGJ,"La Golondrina, Gto.","La Golondrina,Gto.",Guanajuato,Gto.      ,Pénjamo,Lerma Santiago Pacífico,-101.7425,20.439167,RI,R. Penjamo,Libre,1968,CONAGUA,1838.7,1.580,1837.120,5.970,1835.200,4.670,0.123982867353503,1824.050,4.670,2019-06-30 00:00:00.000,30/06/2019,2019/06/30,2019,6,30,.579,4.091,GLNGJ.jpg
1,101,GUAMC,"Guaracha, Mich.","San Antonio, Mich.",Michoacán,Mich.     ,Villamar,Lerma Santiago Pacífico,-102.541389,19.979167,RI,A. sin nombre,Libre,1913,CONAGUA,1596.72,.000,1580.110,29.764,1580.010,28.636,0.0655817851655259,1576.980,28.636,2019-06-30 00:00:00.000,30/06/2019,2019/06/30,2019,6,30,1.878,26.758,GUAMC.jpg
1,37,GVCDR,"Presidente Guadalupe Victoria, Dgo.","El Tunal, Dgo.",Durango,Dgo.      ,Durango,Pacífico Norte,-104.753056,23.961111,RI,R. Tunal,Mixto,1962,CONAGUA,1934.8,1.690,1934.610,94.617,1931.000,78.060,0.676389956443761,1924.620,78.060,2019-06-30 00:00:00.000,30/06/2019,2019/06/30,2019,6,30,52.799,25.261,GVCDR.jpg
1,120,HPNMX,"Huapango, Méx.","Huapango, Méx.",Estado de México,Méx.      ,Timilpan,Aguas del Valle de México,-99.696944,20.046389,RI,R. Huapango,Libre,1765,CONAGUA,2513,.200,2512.800,126.500,2512.650,121.300,0.184089035449299,2509.570,121.300,2019-06-30 00:00:00.000,30/06/2019,2019/06/30,2019,6,30,22.330,98.970,HPNMX.jpg
1,78,HRTJL,"Hurtado, Jal.","Valencia, Jal.",Jalisco,Jal.      ,Acatlán de Juárez,Lerma Santiago Pacífico,-103.651111,20.466944,RI,A. San Antonio,Libre,1879,CONAGUA,1464,1.340,1462.660,22.625,1462.500,21.727,0.271735628480692,1459.220,21.727,2019-06-30 00:00:00.000,30/06/2019,2019/06/30,2019,6,30,5.904,15.823,HRTJL.jpg
1,47,IALGJ,"Ignacio Allende, Gto.","La Begoña, Gto.",Guanajuato,Gto.      ,San Miguel de Allende,Lerma Santiago Pacífico,-100.825833,20.848056,RI,R. de la Laja,Contr,1968,CONAGUA,1834.7,2.050,1833.330,241.410,1828.750,125.120,0.562835677749361,1825.600,125.120,2019-06-30 00:00:00.000,30/06/2019,2019/06/30,2019,6,30,70.422,54.698,IALGJ.jpg
1,148,IDFQT,"San Ildefonso, Qro.","El Tepozán, Qro.",Querétaro,Qro.      ,Amealco de Bonfil,Golfo Norte,-99.9625,20.198611,RI,R. San Juan,Libre,1942,CONAGUA,2261.93,1.870,2242.500,58.026,2239.000,47.812,0.145611980256003,2218.350,47.812,2019-06-30 00:00:00.000,30/06/2019,2019/06/30,2019,6,30,6.962,40.850,IDFQT.jpg
1,102,INFMC,"Infiernillo, Mich.","Infiernillo, Mich.",Michoacán,Mich.     ,Arteaga,Balsas,-101.883333,18.266667,GH,R. Balsas,Contr,0,CFE,184,.800,183.200,13567.650,165.000,7872.590,0.478786015783878,148.400,7872.590,2019-06-30 00:00:00.000,30/06/2019,2019/06/30,2019,6,30,3769.286,4103.304,INFMC.jpg
1,175,IRASO,"Ignacio R. Alatorre, Son.","Punta de Agua, Son.",Sonora,Son.      ,Guaymas,Noroeste,-110.396944,28.426389,RI,R. San Marcial o Mátape,Libre,1972,CONAGUA,105,2.290,102.710,29.690,100.000,16.160,0.0696782184797062,93.700,16.160,2019-06-30 00:00:00.000,30/06/2019,2019/06/30,2019,6,30,1.126,15.034,IRASO.jpg
1,167,IVGSL,"Valentín Gama, S.L.P.","Ojo Caliente, S.L.P.",San Luis Potosí,S.L.P.    ,Villa de Reyes,Cuencas Centrales del Norte,-100.820556,21.88,RI,R. Santa María,Libre,1970,CONAGUA,1789.55,1.450,1788.100,22.400,1783.800,9.510,0.282860140405726,1779.710,9.510,2019-06-30 00:00:00.000,30/06/2019,2019/06/30,2019,6,30,2.690,6.820,IVGSL.jpg
1,103,JARMC,"Jaripo, Mich.","Jaripo, Mich.",Michoacán,Mich.     ,Villamar,Lerma Santiago Pacífico,-102.601944,19.958333,RI,A. sin nombre,Libre,1951,CONAGUA,1548.5,2.200,1580.420,9.265,1578.910,6.028,0.535003317850033,1577.280,6.028,2019-06-30 00:00:00.000,30/06/2019,2019/06/30,2019,6,30,3.225,2.803,JARMC.jpg
1,4,JCQAG,"Jocoque, Ags.","Derecha Jocoque, Ags.",Aguascalientes,Ags.      ,San José de Gracia,Lerma Santiago Pacífico,-102.356944,22.121667,RI,R. San Pedro,Libre,1929,CONAGUA,1944.95,1.550,1943.400,11.400,1942.450,10.975,0.943963520720409,1941.600,10.975,2019-06-30 00:00:00.000,30/06/2019,2019/06/30,2019,6,30,10.360,.615,JCQAG.jpg
1,137,JDMOX,"Presidente Benito Juárez, Oax.","Bordo Benito Juárez, Oax.",Oaxaca,Oax.      ,Santa María Jalapa del Marqués,Pacífico Sur,-95.397778,16.445556,RI,R. Tehuantepec,Libre,1961,CONAGUA,138.4,2.650,139.850,1726.747,124.250,720.317,0.527210936296103,115.620,720.317,2019-06-30 00:00:00.000,30/06/2019,2019/06/30,2019,6,30,379.759,340.558,JDMOX.jpg
1,156,JGRSI,"Juan Guerrero Alcocer, Sin.","Vinoramas, Sin.",Sinaloa,Sin.      ,Culiacán,Pacífico Norte,-107.059444,24.753611,RI,A. El Bledal,Libre,1994,CONAGUA,178.3,2.020,176.280,102.000,168.500,54.684,0.129251700680272,152.270,54.684,2019-06-30 00:00:00.000,30/06/2019,2019/06/30,2019,6,30,7.068,47.616,JGRSI.jpg
1,157,JLPSI,"José López Portillo, Sin.","Comedero, Sin.",Sinaloa,Sin.      ,Cosalá,Pacífico Norte,-106.807222,24.571667,AP/GH/RI,R. San Lorenzo,Contr,1981,CONAGUA,290,4.550,286.950,3966.170,272.160,2580.190,0.2810765873831,238.720,2580.190,2019-06-30 00:00:00.000,30/06/2019,2019/06/30,2019,6,30,725.231,1854.959,JLPSI.jpg
1,158,JORSI,"Josefa Ortiz de Domínguez, Sin.","El Sabino, Sin.",Sinaloa,Sin.      ,El Fuerte,Pacífico Norte,-108.7025,26.426944,AP/RI,A. Alamos,Contr,1967,CONAGUA,113.5,2.930,112.650,685.110,109.500,519.280,0.414728085040826,101.910,519.280,2019-06-30 00:00:00.000,30/06/2019,2019/06/30,2019,6,30,215.360,303.920,JORSI.jpg
1,30,JSBCP,"Juan Sabines, Chis.","El Portillo II o Cuxtepeques, Chis.",Chiapas,Chis.     ,La Concordia,Frontera Sur,-92.898611,15.996389,RI,R. Cuxtepeques,Libre,1981,CONAGUA,620.25,1.980,618.270,116.110,612.120,68.150,0.723228156954386,608.660,68.150,2019-06-30 00:00:00.000,30/06/2019,2019/06/30,2019,6,30,49.288,18.862,JSBCP.jpg
1,130,LBCNL,"Rodrigo Gómez, N.L.","La Boca, N.L.",Nuevo León,N.L.      ,Santiago,Río Bravo,-100.128056,25.428056,AP,A. La Chueca - San Juan,Contr,1961,CONAGUA,450.04,.840,449.200,42.657,447.550,35.000,0.872285714285714,446.520,35.000,2019-06-30 00:00:00.000,30/06/2019,2019/06/30,2019,6,30,30.530,4.470,LBCNL.jpg
1,188,LBLTP,"Derivadora Las Blancas, Tamps.","Las Blancas, Tamps.",Tamaulipas,Tamps.    ,Mier,Río Bravo,-99.233611,26.408889,RI,R. Sombreretillo,Libre,2000,CONAGUA,93.3,1.500,91.800,133.432,89.920,83.784,0.59360975842643,87.130,83.784,2019-06-30 00:00:00.000,30/06/2019,2019/06/30,2019,6,30,49.735,34.049,LBLTP.jpg
1,16,LBQCH,"La Boquilla, Chih.","Lago de Toronto,Chih.",Chihuahua,Chih.     ,San Francisco de Conchos,Río Bravo,-105.414167,27.544722,GH/RI,R. Conchos,Libre,1916,CONAGUA,1322,2.900,1319.100,3278.098,1317.000,2893.571,0.57726593681929,1308.500,2893.571,2019-06-30 00:00:00.000,30/06/2019,2019/06/30,2019,6,30,1670.360,1223.211,LBQCH.jpg
1,190,LCAVC,"La Cangrejera, Ver.","La Crangrejera, Ver.",Veracruz,Ver.      ,Coatzacoalcos,Golfo Centro,-94.330833,18.109444,AP,R. Teapa,Libre,1980,CONAGUA,23.87,2.220,21.650,31.600,21.250,28.537,0.482461354853125,18.780,28.537,2019-06-30 00:00:00.000,30/06/2019,2019/06/30,2019,6,30,13.768,14.769,LCAVC.jpg
1,176,LCDSO,"Lázaro Cárdenas, Son.","La Angostura, Son.",Sonora,Son.      ,Nacozari de García,Noroeste,-109.378889,30.437778,RI,R. Bavispe,Libre,1942,CONAGUA,843.75,3.600,840.150,1116.460,830.700,703.380,0.93669281956596,829.500,703.380,2019-06-30 00:00:00.000,30/06/2019,2019/06/30,2019,6,30,658.851,44.529,LCDSO.jpg
1,56,LCLGR,"La Calera, Gro.","La Calera, Gro.",Guerrero,Gro.      ,Zirándaro,Balsas,-101.003056,18.418611,RI,R. Chiquito o El Oro,Libre,1964,CONAGUA,124.3,1.680,122.620,34.193,118.000,9.393,1.03161929096135,118.080,9.393,2019-06-30 00:00:00.000,30/06/2019,2019/06/30,2019,6,30,9.690,-.297,LCLGR.jpg
1,79,LCLJL,"La Colonia, Jal.","La Colonia, Jal.",Jalisco,Jal.      ,Zapotlán del Rey,Lerma Santiago Pacífico,-102.931944,20.43,RI,A. Los Sabinos,Libre,1927,CONAGUA,0,.000,103.400,6.500,103.000,5.775,0.288311688311688,101.100,5.775,2019-06-30 00:00:00.000,30/06/2019,2019/06/30,2019,6,30,1.665,4.110,LCLJL.jpg
1,38,LCRDR,"Lázaro Cárdenas, Dgo.","El Palmito, Dgo.",Durango,Dgo.      ,Indé,Cuencas Centrales del Norte,-105.015833,25.594167,RI,R. Nazas,Contr,1946,CONAGUA,1635,3.000,1632.000,4278.541,1622.460,2957.610,0.581043477672851,1609.740,2957.610,2019-06-30 00:00:00.000,30/06/2019,2019/06/30,2019,6,30,1718.500,1239.110,LCRDR.jpg
1,26,LDACM,"Laguna de Amela, Col.","Tecomán, Col.",Colima,Col.      ,Tecomán,Lerma Santiago Pacífico,-103.774167,18.809167,RI,Canal Bajo Amela y Dren Zanja,Libre,0,CONAGUA,10.89,3.250,7.640,41.300,7.390,38.343,0.567691625590068,5.790,38.343,2019-06-30 00:00:00.000,30/06/2019,2019/06/30,2019,6,30,21.767,16.576,LDACM.jpg
1,80,LDCJL,"Lago de Chapala, Jal.","Chapala, Jal.",Jalisco,Jal.      ,Chapala,Lerma Santiago Pacífico,-103.201667,20.290556,AP,R. Lerma,Libre,0,CONAGUA,0,.000,99.000,9279.710,98.000,8126.410,0.68881584857274,95.770,8126.410,2019-06-30 00:00:00.000,30/06/2019,2019/06/30,2019,6,30,5597.600,2528.810,LDCJL.jpg
1,159,LDCSI,"Luis Donaldo Colosio, Sin.","Huites, Sin.",Sinaloa,Sin.      ,Choix,Pacífico Norte,-108.367778,26.844722,GH,R. Fuerte,Contr,1995,CFE,290.75,.750,290.000,4568.000,274.000,3203.000,0.41642210427724,241.490,3203.000,2019-06-30 00:00:00.000,30/06/2019,2019/06/30,2019,6,30,1333.800,1869.200,LDCSI.jpg
1,191,LDCVC,"Canseco, Ver.","Canseco, Ver.",Veracruz,Ver.      ,Catemaco,Golfo Centro,-95.118333,18.415833,GH,R. Grande,Contr,1960,CFE,334.5,1.000,333.500,465.700,332.700,193.020,0.645528960729458,331.770,193.020,2019-06-30 00:00:00.000,30/06/2019,2019/06/30,2019,6,30,124.600,68.420,LDCVC.jpg
1,104,LDFMC,"Laguna del Fresno, Mich.","Laguna del Fresno, Mich.",Michoacán,Mich.     ,Maravatío,Lerma Santiago Pacífico,-100.406389,19.838056,RI,R. Cachiví,Libre,1946,CONAGUA,2059,2.000,2057.000,13.132,2055.980,10.299,0.21691426352073,2052.440,10.299,2019-06-30 00:00:00.000,30/06/2019,2019/06/30,2019,6,30,2.234,8.065,LDFMC.jpg
1,57,LDTGR,"Laguna de Tuxpan, Gro.","Laguna de Tuxpan, Gro.",Guerrero,Gro.      ,Iguala de la Independencia,Balsas,-99.503056,18.363333,RI,Antiguo canal de riego,Libre,1937,CONAGUA,744.75,.000,743.350,19.503,742.840,17.647,0.730662462076218,741.470,17.647,2019-06-30 00:00:00.000,30/06/2019,2019/06/30,2019,6,30,12.894,4.753,LDTGR.jpg
1,48,LDYGJ,"Laguna de Yuriria, Gto.","Bordo de Tavamatacheo, Gto.",Guanajuato,Gto.      ,Yuriria,Lerma Santiago Pacífico,-101.073056,20.286944,RI,R. Lerma,Contr,1550,CONAGUA,0,.000,1731.400,325.195,1730.920,278.790,0.497413824025252,1729.320,278.790,2019-06-30 00:00:00.000,30/06/2019,2019/06/30,2019,6,30,138.674,140.116,LDYGJ.jpg
1,23,LFGCL,"La Fragua, Coah.","La Fragua, Coah",Coahuila,Coah.     ,Jiménez,Río Bravo,-100.832222,28.82,RI,R. San Rodrigo,Libre,1993,CONAGUA,306.68,2.000,303.960,85.380,300.300,47.295,0.765725793468354,298.840,47.295,2019-06-30 00:00:00.000,30/06/2019,2019/06/30,2019,6,30,36.215,11.080,LFGCL.jpg
1,17,LJSCH,"Las Lajas, Chih.","Las Lajas, Chih.",Chihuahua,Chih.     ,Buenaventura,Río Bravo,-107.025833,29.88,RI,R. El Carmen o Santa Clara,Libre,1964,CONAGUA,1563.8,2.180,1561.620,106.547,1558.700,83.266,0.221951339771213,1546.260,83.266,2019-06-30 00:00:00.000,30/06/2019,2019/06/30,2019,6,30,18.481,64.785,LJSCH.jpg
1,140,LLAPB,"La Laguna, Hgo.","Tejocotal, Pue.",Hidalgo,Hgo.      ,Acaxochitlán,Golfo Centro,-98.128333,20.135556,RI,A. Huitzilin,Libre,1903,CONAGUA,2185,1.000,2184.500,40.638,2183.000,40.640,0.175196850393701,2175.700,40.640,2019-06-30 00:00:00.000,30/06/2019,2019/06/30,2019,6,30,7.120,33.520,LLAPB.jpg
1,149,LLAQT,"La Llave, Qro.","Divino Redentor, Qro.",Querétaro,Qro.      ,San Juan del Río,Golfo Norte,-99.994722,20.461944,RI,Dren Culebra,Libre,1885,CONAGUA,0,.050,1891.100,14.414,1890.000,9.312,0.0756013723405781,1887.830,9.312,2019-06-30 00:00:00.000,30/06/2019,2019/06/30,2019,6,30,.704,8.608,LLAQT.jpg
1,18,LLNCH,"Ing. Luis L. León, Chih.","El Granero, Chih.",Chihuahua,Chih.     ,Aldama,Río Bravo,-105.28,28.984444,RI,R. Conchos,Contr,1968,CONAGUA,1053,2.500,1050.500,832.409,1034.800,292.470,0.692002598557117,1030.400,292.470,2019-06-30 00:00:00.000,30/06/2019,2019/06/30,2019,6,30,202.390,90.080,LLNCH.jpg
1,39,LNRDR,"Los Naranjos, Dgo.","Los Naranjos, Dgo.",Durango,Dgo.      ,General Simón Bolívar,Cuencas Centrales del Norte,-103.306944,24.613056,RI,R. Santa Clara,Libre,1985,CONAGUA,1663,1.910,1661.090,27.390,1658.400,20.928,0.682100535168196,1654.990,20.928,2019-06-30 00:00:00.000,30/06/2019,2019/06/30,2019,6,30,14.275,6.653,LNRDR.jpg
1,197,LOBZC,"Manuel Felgueres, Zac.","Lobatos, Zac.",Zacatecas,Zac.      ,Valparaíso,Lerma Santiago Pacífico,-103.382778,22.845278,RI,R. Cuevecillas,Libre,1980,CONAGUA,2082.3,2.120,2080.180,9.435,2077.050,6.905,0.870383753423059,2075.730,6.905,2019-06-30 00:00:00.000,30/06/2019,2019/06/30,2019,6,30,6.010,.895,LOBZC.jpg
1,105,LOLMC,"Los Olivos, Mich.","Los Olivos, Mich.",Michoacán,Mich.     ,Tepalcatepec,Balsas,-102.865556,19.210833,RI,Los Otates,Libre,1961,CONAGUA,423,2.000,421.000,16.271,418.000,10.262,0.365620733708428,413.000,10.262,2019-06-30 00:00:00.000,30/06/2019,2019/06/30,2019,6,30,3.752,6.510,LOLMC.jpg
1,141,LREPB,"Los Reyes, Hgo.","Omiltepec, Pue.",Hidalgo,Hgo.      ,Acaxochitlán,Golfo Centro,-98.131944,20.174722,RI,R. Omiltepec,Libre,1913,CONAGUA,2168.5,1.500,2167.000,29.263,2165.000,24.031,0.0915484166285215,2152.890,24.031,2019-06-30 00:00:00.000,30/06/2019,2019/06/30,2019,6,30,2.200,21.831,LREPB.jpg
1,198,LREZC,"Gobernador Leobardo Reynoso, Zac.","Trujillo, Zac.",Zacatecas,Zac.      ,Fresnillo,Cuencas Centrales del Norte,-103.216944,23.18,RI,R. San Francisco o Los Lazos,Libre,1946,CONAGUA,2131.85,2.320,2129.530,125.920,2127.350,95.794,0.629454871912646,2124.030,95.794,2019-06-30 00:00:00.000,30/06/2019,2019/06/30,2019,6,30,60.298,35.496,LREZC.jpg
1,49,MABGJ,"Mariano Abasolo, Gto.","San Antonio de Aceves, Gto.",Guanajuato,Gto.      ,Pénjamo,Lerma Santiago Pacífico,-101.931111,20.507222,RI,A. los Otates,Libre,1971,CONAGUA,1755,1.920,1753.080,23.946,1751.300,20.079,0.208177698092534,1740.720,20.079,2019-06-30 00:00:00.000,30/06/2019,2019/06/30,2019,6,30,4.180,15.899,MABGJ.jpg
1,31,MALCP,"Nezahualcóyotl, Chis.","Malpaso, Chis.",Chiapas,Chis.     ,Tecpatán,Frontera Sur,-93.598889,17.178611,GH,R. Grijalva o Mezcalapa,Contr,1964,CFE,192,4.000,188.000,14056.300,182.500,12373.100,0.536334467514204,161.160,12373.100,2019-06-30 00:00:00.000,30/06/2019,2019/06/30,2019,6,30,6636.120,5736.980,MALCP.jpg
1,106,MLPMC,"Malpaís, Mich.","La Ciénega, Mich.",Michoacán,Mich.     ,Queréndaro,Lerma Santiago Pacífico,-100.873611,19.829167,RI,R. Querendaro,Mixto,1938,CONAGUA,1830.96,1.000,1843.560,27.249,1842.530,18.512,0.413785652549698,1840.780,18.512,2019-06-30 00:00:00.000,30/06/2019,2019/06/30,2019,6,30,7.660,10.852,MLPMC.jpg
1,5,MNLAG,"Media Luna, Ags.","Media Luna, Ags.",Aguascalientes,Ags.      ,Calvillo,Lerma Santiago Pacífico,-102.788333,21.8075,RI,R. Calvillo,Libre,1976,CONAGUA,1624.1,2.140,1621.960,21.196,1619.200,15.000,0.627,1615.770,15.000,2019-06-30 00:00:00.000,30/06/2019,2019/06/30,2019,6,30,9.405,5.595,MNLAG.jpg
1,107,MOCMC,"Melchor Ocampo, Mich.","El Rosario, Mich.",Michoacán,Mich.     ,Angamacutiro,Lerma Santiago Pacífico,-101.724444,20.127222,RI,R. Angúlo,Libre,1975,CONAGUA,1716.5,2.090,1714.410,249.843,1711.900,194.454,0.456354728601194,1706.160,194.454,2019-06-30 00:00:00.000,30/06/2019,2019/06/30,2019,6,30,88.740,105.714,MOCMC.jpg
1,182,MRGTP,"Marte Rodolfo Gómez, Tamps.","El Azúcar, Tamps.",Tamaulipas,Tamps.    ,Camargo,Río Bravo,-98.925556,26.204722,RI,R. San Juan,Libre,1946,CONAGUA,86,3.000,83.000,2208.663,76.300,781.700,0.419497243033368,72.210,781.700,2019-06-30 00:00:00.000,30/06/2019,2019/06/30,2019,6,30,327.921,453.779,MRGTP.jpg
1,142,NEXPB,"Nexapa, Pue.","Nexapa, Pue.",Puebla,Pue.      ,Tlaola,Golfo Centro,-97.984722,20.168333,GH,R. Nexapa,Libre,1912,FENIX,1364,1.000,1362.350,15.313,1360.000,12.500,0.48416,1354.550,12.500,2019-06-30 00:00:00.000,30/06/2019,2019/06/30,2019,6,30,6.052,6.448,NEXPB.jpg
1,6,NGRAG,"El Niágara, Ags.","El Niágara, Ags.",Aguascalientes,Ags.      ,Aguascalientes,Lerma Santiago Pacífico,-102.371667,21.78,RI,R. Aguascalientes,Libre,1963,CONAGUA,1833,.600,1832.400,31.695,1828.400,16.188,0.973313582118147,1828.250,16.188,2019-06-30 00:00:00.000,30/06/2019,2019/06/30,2019,6,30,15.756,.432,NGRAG.jpg
1,143,NNEPB,"Necaxa, Pue.","Necaxa, Pue.",Puebla,Pue.      ,Juan Galindo,Golfo Centro,-98.000556,20.216667,GH,R. Necaxa,Libre,1908,FENIX,1344,1.000,1343.000,39.283,1338.000,29.055,0.325038719669592,1325.780,29.055,2019-06-30 00:00:00.000,30/06/2019,2019/06/30,2019,6,30,9.444,19.611,NNEPB.jpg
1,19,PAGCH,"Pico del Águila, Chih.","Pico Del Águila, Chih.",Chihuahua,Chih.     ,Coronado,Río Bravo,-105.254167,26.546389,RI,R. Florido,Libre,1993,CONAGUA,1625.9,2.500,1619.000,59.843,1616.900,48.276,0.705319413373105,1613.900,48.276,2019-06-30 00:00:00.000,30/06/2019,2019/06/30,2019,6,30,34.050,14.226,PAGCH.jpg
1,40,PAGDR,"Peña del Águila, Dgo.","Peña Del Águila, Dgo.",Durango,Dgo.      ,Durango,Pacífico Norte,-104.656667,24.203889,RI,R. La Sauceda,Libre,1954,CONAGUA,1896.8,1.530,1895.270,54.902,1892.500,27.948,0.502146844139115,1890.170,27.948,2019-06-30 00:00:00.000,30/06/2019,2019/06/30,2019,6,30,14.034,13.914,PAGDR.jpg
1,199,PALZC,"Palomas, Zac.","Palomas, Zac.",Zacatecas,Zac.      ,Villanueva,Lerma Santiago Pacífico,-102.798056,22.347778,RI,R. Palomas,Libre,1970,CONAGUA,1908.34,.860,1907.480,8.761,1904.250,4.620,0.217532467532467,1898.470,4.620,2019-06-30 00:00:00.000,30/06/2019,2019/06/30,2019,6,30,1.005,3.615,PALZC.jpg
1,7,PECAG,"Plutarco Elías Calles, Ags.","Calles, Ags.",Aguascalientes,Ags.      ,San José de Gracia,Lerma Santiago Pacífico,-102.417222,22.141111,AP/RI,R. Santiago,Libre,1931,CONAGUA,2022.6,.600,2022.000,407.438,2020.000,358.121,0.538792754404238,2011.480,358.121,2019-06-30 00:00:00.000,30/06/2019,2019/06/30,2019,6,30,192.953,165.168,PECAG.jpg
1,177,PECSO,"Plutarco Elías Calles, Son.","El Novillo, Son.",Sonora,Son.      ,Soyopa,Noroeste,-109.642222,28.976667,GH,R. Yaqui,Contr,1964,CFE,297.8,1.000,296.800,3511.964,290.500,2833.070,0.468897697550714,272.430,2833.070,2019-06-30 00:00:00.000,30/06/2019,2019/06/30,2019,6,30,1328.420,1504.650,PECSO.jpg
1,32,PENCP,"Ángel Albino Corzo, Chis.","Peñitas, Chis.",Chiapas,Chis.     ,Ostuacán,Frontera Sur,-93.458611,17.446111,GH,R. Grijalva,Contr,1986,CFE,98,5.000,95.500,1084.741,87.400,670.660,0.925664271016611,86.070,670.660,2019-06-30 00:00:00.000,30/06/2019,2019/06/30,2019,6,30,620.806,49.854,PENCP.jpg
1,62,PERHD,"La Esperanza, Hgo.","La Esperanza, Hgo.",Hidalgo,Hgo.      ,Cuautepec de Hinojosa,Golfo Norte,-98.334722,20.0575,RI,R. Santa María,Libre,1943,CONAGUA,2210.6,1.000,2209.600,4.200,2207.700,3.920,1.0647958976435,2208.210,3.920,2019-06-30 00:00:00.000,30/06/2019,2019/06/30,2019,6,30,4.174,-.254,PERHD.jpg
1,121,PFBMX,"Francisco José Trinidad Fabela, Méx.","Islas de las Aves o El Salto, Méx.",Estado de México,Méx.      ,Atlacomulco,Lerma Santiago Pacífico,-99.790278,19.829167,RI,R. Del Salto,Libre,1945,CONAGUA,2697.5,1.700,2697.800,12.320,2696.700,9.930,0.327291037260826,2692.510,9.930,2019-06-30 00:00:00.000,30/06/2019,2019/06/30,2019,6,30,3.250,6.680,PFBMX.jpg
1,122,PIRMX,"Ignacio Ramírez, Méx.","La Gavia, Méx.",Estado de México,Méx.      ,Almoloya de Juárez,Lerma Santiago Pacífico,-99.775,19.461667,RI,R. La Gavia,Libre,1965,CONAGUA,2553.76,3.280,2550.480,36.300,2548.440,20.227,0.291343254066347,2545.610,20.227,2019-06-30 00:00:00.000,30/06/2019,2019/06/30,2019,6,30,5.893,14.334,PIRMX.jpg
1,183,PJMTP,"Pedro José Méndez, Tamps.","Pedro J. Méndez, Tamps.",Tamaulipas,Tamps.    ,Hidalgo,Golfo Norte,-99.555833,24.2475,RI,R. San Juan,Libre,1982,CONAGUA,453,3.600,449.400,38.360,447.220,31.260,0.520153547055224,441.230,31.260,2019-06-30 00:00:00.000,30/06/2019,2019/06/30,2019,6,30,16.260,15.000,PJMTP.jpg
1,207,PLYJL,"Ing. Alfredo Elías Ayub, Jal.","La Yesca, Jal.",Jalisco,Jal.      ,Hostotipaquillo,Lerma Santiago Pacífico,-104.105833,21.196944,GH,R. Santiago,Contr,2012,CFE,579,1.000,578.000,2392.890,575.000,2292.920,0.613370723793242,542.790,2292.920,2019-06-30 00:00:00.000,30/06/2019,2019/06/30,2019,6,30,1406.410,886.510,PLYJL.jpg
1,123,PMDMX,"Madín, Méx.","Madín, Méx.",Estado de México,Méx.      ,Naucalpan de Juárez,Aguas del Valle de México,-99.260833,19.526944,AP,R. Tlanepantla,Contr,1959,CONAGUA,2348.5,2.460,2346.040,17.964,2332.500,7.130,0.981767180925666,2332.240,7.130,2019-06-30 00:00:00.000,30/06/2019,2019/06/30,2019,6,30,7.000,.130,PMDMX.jpg
1,161,PMHSI,"Miguel Hidalgo, Sin.","El Mahoné, Sin.",Sinaloa,Sin.      ,El Fuerte,Pacífico Norte,-108.58,26.509722,AP/GH/RI,R. Fuerte,Mixto,1956,CONAGUA,151.4,3.400,148.000,4171.273,142.360,3312.890,0.413832031851344,125.700,3312.890,2019-06-30 00:00:00.000,30/06/2019,2019/06/30,2019,6,30,1370.980,1941.910,PMHSI.jpg
1,124,PMNMX,"El Molino, Méx.","El Molino, Méx.",Estado de México,Méx.      ,Aculco,Aguas del Valle de México,-99.739722,20.124167,RI,A. Zarco,Libre,1980,CONAGUA,2491,.000,2385.090,8.700,2384.390,7.690,0.132899868972095,2379.100,7.690,2019-06-30 00:00:00.000,30/06/2019,2019/06/30,2019,6,30,1.022,6.668,PMNMX.jpg
1,178,PMOSO,"Ing. Rodolfo Félix Valdés, Son.","El Molinito, Son.",Sonora,Son.      ,Hermosillo,Noroeste,-110.725556,29.2125,AP,R. Sonora,Libre,1991,CONAGUA,295.4,2.000,293.400,233.920,289.360,130.040,0.129790840290668,279.400,130.040,2019-06-30 00:00:00.000,30/06/2019,2019/06/30,2019,6,30,16.878,113.162,PMOSO.jpg
1,125,PNDMX,"Ñadó, Méx.","Ñadó, Méx.",Estado de México,Méx.      ,Aculco,Aguas del Valle de México,-99.864444,20.038611,RI,R. Ñadó,Libre,1980,CONAGUA,2477.5,2.000,2475.500,18.500,2474.000,16.800,0.310714299824774,2460.840,16.800,2019-06-30 00:00:00.000,30/06/2019,2019/06/30,2019,6,30,5.220,11.580,PNDMX.jpg
1,50,PNLGJ,"Peñuelitas, Gto.","Peñuelitas, Gto.",Guanajuato,Gto.      ,Dolores Hidalgo Cuna de la Independencia Nacional,Lerma Santiago Pacífico,-100.878333,21.105,RI,R. De la Erre,Libre,1960,CONAGUA,1908.2,.910,1907.290,30.169,1904.700,17.460,0.187972508591065,1900.160,17.460,2019-06-30 00:00:00.000,30/06/2019,2019/06/30,2019,6,30,3.282,14.178,PNLGJ.jpg
1,82,POLJL,"Ing. Guillermo Lugo Sanabria, Jal.","La Pólvora, Jal.",Jalisco,Jal.      ,Degollado,Lerma Santiago Pacífico,-102.231944,20.491111,RI,R. Huascato,Libre,1989,CONAGUA,1669.1,4.100,1665.000,56.150,1663.460,51.675,0.608417997097242,1654.600,51.675,2019-06-30 00:00:00.000,30/06/2019,2019/06/30,2019,6,30,31.440,20.235,POLJL.jpg
1,63,PRGHD,"Javier Rojo Gómez, Hgo.","La Peña, Hgo.",Hidalgo,Hgo.      ,Alfajayucan,Aguas del Valle de México,-99.329444,20.359722,RI,R. Alfajayucan,Contr,1979,CONAGUA,1980.96,1.300,1977.839,43.317,1976.840,39.990,0.0742435608902225,1950.840,39.990,2019-06-30 00:00:00.000,30/06/2019,2019/06/30,2019,6,30,2.969,37.021,PRGHD.jpg
1,64,PRQHD,"Requena, Hgo.","Requena, Hgo.",Hidalgo,Hgo.      ,Tula de Allende,Aguas del Valle de México,-99.310833,19.963056,RI,R. Tula,Mixto,0,CONAGUA,2116.59,1.500,2110.300,61.519,2107.500,40.980,0.378233284529039,2102.930,40.980,2019-06-30 00:00:00.000,30/06/2019,2019/06/30,2019,6,30,15.500,25.480,PRQHD.jpg
1,51,PRSGJ,"La Purísima, Gto.","La Purísima, Gto.",Guanajuato,Gto.      ,Guanajuato,Lerma Santiago Pacífico,-101.287778,20.867222,RI,R. Guanajuato,Contr,1979,CONAGUA,1863,2.210,1860.790,182.950,1852.070,98.230,0.672849434999491,1847.730,98.230,2019-06-30 00:00:00.000,30/06/2019,2019/06/30,2019,6,30,66.094,32.136,PRSGJ.jpg
1,133,PSANL,"Salinillas, N.L.","Salinillas, N.L.",Nuevo León,N.L.      ,Anáhuac,Río Bravo,-100.372222,27.429167,RI,R. Salado,Libre,1930,CONAGUA,0,.000,232.000,19.011,232.000,19.011,0.768397256652519,231.050,19.011,2019-06-30 00:00:00.000,30/06/2019,2019/06/30,2019,6,30,14.608,4.403,PSANL.jpg
1,8,PTRAG,"Derivadora Pabellón, Ags.","Derecha Potrerillos, Ags.",Aguascalientes,Ags.      ,Rincón de Romos,Lerma Santiago Pacífico,-102.4375,22.235,RI,R. San Pedro,Libre,1931,CONAGUA,2099.86,.000,2093.000,2.100,2092.600,2.038,0.588812530474993,2086.250,2.038,2019-06-30 00:00:00.000,30/06/2019,2019/06/30,2019,6,30,1.200,.838,PTRAG.jpg
1,108,PUCMC,"Pucuato, Mich.","Pucuato, Mich.",Michoacán,Mich.     ,Hidalgo,Balsas,-100.684167,19.621389,RI,A. Los Charcos,Libre,1946,CONAGUA,2501.25,1.250,2500.000,11.534,2499.000,9.485,0.491302055877702,2496.140,9.485,2019-06-30 00:00:00.000,30/06/2019,2019/06/30,2019,6,30,4.660,4.825,PUCMC.jpg
1,65,PVAHD,"Vicente Aguirre, Hgo.","Las Golondrinas, Hgo.",Hidalgo,Hgo.      ,Alfajayucan,Aguas del Valle de México,-99.375833,20.435556,RI,R. Alfajayucan,Libre,1954,CONAGUA,1865.9,7.400,1855.500,19.685,1854.900,17.799,0.033653576043598,1845.010,17.799,2019-06-30 00:00:00.000,30/06/2019,2019/06/30,2019,6,30,.599,17.200,PVAHD.jpg
1,84,REDJL,"La Red, Jal.","La Red, Jal.",Jalisco,Jal.      ,Acatic,Lerma Santiago Pacífico,-102.815278,20.718889,RI,R. Calderón,Libre,1968,CONAGUA,1796.5,1.800,1794.700,18.300,1792.500,14.250,0.44519298245614,1787.320,14.250,2019-06-30 00:00:00.000,30/06/2019,2019/06/30,2019,6,30,6.344,7.906,REDJL.jpg
1,58,RMEGR,"Revolución Mexicana, Gro.","El Guineo, Gro.",Guerrero,Gro.      ,Ayutla de los Libres,Pacífico Sur,-99.166111,16.823611,RI,R. Nexpa,Libre,1984,CONAGUA,110.7,3.110,107.590,259.502,94.400,126.694,0.691855967922711,88.830,126.694,2019-06-30 00:00:00.000,30/06/2019,2019/06/30,2019,6,30,87.654,39.040,RMEGR.jpg
1,116,RODMR,"El Rodeo, Mor.","El Rodeo, Mor.",Morelos,Mor.      ,Miacatlán,Balsas,-99.331389,18.765278,RI,R. Tembembe,Libre,1974,CONAGUA,1166.5,2.300,1166.500,33.137,1164.200,26.984,0.207196863138048,1154.680,26.984,2019-06-30 00:00:00.000,30/06/2019,2019/06/30,2019,6,30,5.591,21.393,RODMR.jpg
1,184,RSPTP,"República Española, Tamps.","Real Viejo o El Sombrero, Tamps.",Tamaulipas,Tamps.    ,Aldama,Golfo Norte,-97.991944,23.259444,AP,A. San Pedro,Libre,1974,CONAGUA,92,2.570,89.430,105.990,83.000,54.780,0.271212127255741,76.980,54.780,2019-06-30 00:00:00.000,30/06/2019,2019/06/30,2019,6,30,14.857,39.923,RSPTP.jpg
1,206,SA1JL,"La Sauceda, Jal.","Garabatillos, Jal.",Jalisco,Jal.      ,Lagos de Moreno,Lerma Santiago Pacífico,-101.835556,21.359167,RI,R. La Sauceda,Libre,1982,CONAGUA,1923,1.970,1921.030,21.500,1918.900,16.000,0.5541875,1915.510,16.000,2019-06-30 00:00:00.000,30/06/2019,2019/06/30,2019,6,30,8.867,7.133,SA1JL.jpg
1,109,SABMC,"Sabaneta, Mich.","Sabaneta, Mich.",Michoacán,Mich.     ,Hidalgo,Balsas,-100.669444,19.622778,RI,A. Los Charcos,Libre,1948,CONAGUA,2494.9,2.050,2508.950,5.875,2508.000,5.043,0.946857029545905,2507.680,5.043,2019-06-30 00:00:00.000,30/06/2019,2019/06/30,2019,6,30,4.775,.268,SABMC.jpg
1,126,SBBMX,"José Antonio Alzate, Méx.","San Bernabé, Méx.",Estado de México,Méx.      ,Temoaya,Lerma Santiago Pacífico,-99.704722,19.465833,RI,R. Lerma,Libre,1962,CONAGUA,2567,1.580,2566.920,52.509,2565.500,35.312,0.136242636004187,2560.000,35.312,2019-06-30 00:00:00.000,30/06/2019,2019/06/30,2019,6,30,4.811,30.501,SBBMX.jpg
1,41,SBYDR,"Santiago Bayacora, Dgo.","Santiago Bayacora, Dgo.",Durango,Dgo.      ,Durango,Pacífico Norte,-104.675833,23.874444,RI,R. Santiago Bayacora,Libre,1990,CONAGUA,1962,.810,1965.940,169.869,1959.010,130.047,0.814605507136186,1954.130,130.047,2019-06-30 00:00:00.000,30/06/2019,2019/06/30,2019,6,30,105.937,24.110,SBYDR.jpg
1,42,SELDR,"Santa Elena, Dgo.","Santa Elena, Dgo.",Durango,Dgo.      ,General Simón Bolívar,Pacífico Norte,-103.079722,24.608333,RI,R. Graseros,Libre,1977,CONAGUA,2002.75,1.140,2001.610,18.766,1999.800,15.080,0.547480106100796,1995.700,15.080,2019-06-30 00:00:00.000,30/06/2019,2019/06/30,2019,6,30,8.256,6.824,SELDR.jpg
1,43,SGBDR,"San Gabriel, Dgo.","San Gabriel, Dgo.",Durango,Dgo.      ,Ocampo,Río Bravo,-105.560833,26.436667,RI,R. Florido,Libre,1991,CONAGUA,1785.6,2.210,1783.390,377.338,1777.900,245.431,0.508444329054324,1770.820,245.431,2019-06-30 00:00:00.000,30/06/2019,2019/06/30,2019,6,30,124.788,120.643,SGBDR.jpg
1,179,SJATL,"San José Atlanga, Tlax.","Atlanga,Tlax.",Tlaxcala,Tlaxc.    ,Atlangatepec,Balsas,-98.200556,19.556111,RI,R. Zahuapán,Libre,1959,CONAGUA,2500,2.330,2486.870,47.970,2486.400,42.630,0.747243725076237,2485.320,42.630,2019-06-30 00:00:00.000,30/06/2019,2019/06/30,2019,6,30,31.855,10.775,SJATL.jpg
1,110,SJUMC,"San Juanico, Mich.","La Laguna, Mich.",Michoacán,Mich.     ,Cotija,Balsas,-102.651389,19.839444,RI,R. Cotija,Libre,1950,CONAGUA,1574.6,.000,1604.560,70.300,1603.860,60.651,0.720021104351124,1602.540,60.651,2019-06-30 00:00:00.000,30/06/2019,2019/06/30,2019,6,30,43.670,16.981,SJUMC.jpg
1,220,SLDGJ,"La Soledad, Gto.","La Soledad, Gto.",Guanajuato,Gto.      ,Guanajuato,Lerma Santiago Pacífico,-101.279722,21.04,AP,R. Santa Ana,Libre,1956,CONAGUA,2211.4,2.250,2209.150,2.371,2207.750,1.857,0.930533117932149,2207.500,1.857,2019-06-30 00:00:00.000,30/06/2019,2019/06/30,2019,6,30,1.728,.129,SLDGJ.jpg
1,52,SLSGJ,"Solís, Gto.","Solis, Gto.",Guanajuato,Gto.      ,Acámbaro,Lerma Santiago Pacífico,-100.669722,20.055278,RI,R. Lerma,Contr,1949,CONAGUA,1901.7,3.000,1898.700,1214.140,1892.300,785.540,0.770244672454617,1889.100,785.540,2019-06-30 00:00:00.000,30/06/2019,2019/06/30,2019,6,30,605.058,180.482,SLSGJ.jpg
1,162,SLTSI,"Ing. Aurelio Benassini Vizcaino, Sin.","El Salto o Elota, Sin.",Sinaloa,Sin.      ,Elota,Pacífico Norte,-106.695833,24.121944,RI,R. Elota,Libre,1988,CONAGUA,167.1,2.460,164.640,815.592,154.500,403.900,0.209923248328794,136.840,403.900,2019-06-30 00:00:00.000,30/06/2019,2019/06/30,2019,6,30,84.788,319.112,SLTSI.jpg
1,186,SLZTP,"Lic. Emilio Portes Gil, Tamps.","San Lorenzo, Tamps.",Tamaulipas,Tamps.    ,Xicoténcatl,Golfo Norte,-98.791389,22.943889,AP/RI,A. El Sargento,Libre,1983,CONAGUA,125,1.100,123.900,255.650,122.950,230.780,0.665828927983361,119.160,230.780,2019-06-30 00:00:00.000,30/06/2019,2019/06/30,2019,6,30,153.660,77.120,SLZTP.jpg
1,24,SMGCL,"San Miguel, Coah.","San Miguel, Coah.",Coahuila,Coah.     ,Jiménez,Río Bravo,-100.953889,29.034167,AP/RI,R. San Diego,Libre,1935,CONAGUA,343.5,1.540,341.960,22.193,341.740,21.168,0.973545007230048,341.620,21.168,2019-06-30 00:00:00.000,30/06/2019,2019/06/30,2019,6,30,20.608,.560,SMGCL.jpg
1,168,SNJSL,"San José, S.L.P.","San José, S.L.P.",San Luis Potosí,S.L.P.    ,San Luis Potosí,Cuencas Centrales del Norte,-101.054444,22.150278,AP,R. Santiago,Libre,1903,CONAGUA,1955.5,.360,1933.700,5.656,1933.300,5.223,0.639862148190695,1930.720,5.223,2019-06-30 00:00:00.000,30/06/2019,2019/06/30,2019,6,30,3.342,1.881,SNJSL.jpg
1,163,SNLSI,"Sanalona, Sin.","Sanalona, Sin.",Sinaloa,Sin.      ,Culiacán,Pacífico Norte,-107.151389,24.815,AP/GH/RI,R. Tamazula,Libre,1948,CONAGUA,165,2.830,162.170,987.522,156.200,687.988,0.126433891288802,134.260,687.988,2019-06-30 00:00:00.000,30/06/2019,2019/06/30,2019,6,30,86.985,601.003,SNLSI.jpg
1,144,SOLPB,"La Soledad, Pue.","La Soledad, Pue.",Puebla,Pue.      ,Tlatlauquitepec,Golfo Centro,-97.446667,19.960833,GH,R. Apulco y Xiucayucan,Contr,1962,CFE,806.5,1.500,805.000,14.978,804.500,13.900,0.50158273381295,800.470,13.900,2019-06-30 00:00:00.000,30/06/2019,2019/06/30,2019,6,30,6.972,6.928,SOLPB.jpg
1,87,SRSJL,"Manuel M. Dieguez, Jal.","Santa Rosa, Jal.",Jalisco,Jal.      ,Amatitán,Lerma Santiago Pacífico,-103.705556,20.908889,GH,R. Santiago,Contr,1964,CFE,747,.500,748.000,258.468,744.000,219.090,0.337030444109727,724.400,219.090,2019-06-30 00:00:00.000,30/06/2019,2019/06/30,2019,6,30,73.840,145.250,SRSJL.jpg
1,202,STRZC,"Santa Rosa, Zac.","Santa Rosa, Zac.",Zacatecas,Zac.      ,Fresnillo,Cuencas Centrales del Norte,-103.108889,22.923611,RI,A. El Arenal,Libre,1937,CONAGUA,2250.19,.550,2249.640,14.041,2248.640,10.476,0.636979773474126,2247.400,10.476,2019-06-30 00:00:00.000,30/06/2019,2019/06/30,2019,6,30,6.673,3.803,STRZC.jpg
1,203,TAYZC,"Ing. Julián Adame Alatorre, Zac.","Tayahua, Zac.",Zacatecas,Zac.      ,Villanueva,Lerma Santiago Pacífico,-102.864167,22.120556,RI,R. Juchipila,Libre,1976,CONAGUA,1701.7,.290,1701.410,50.377,1696.010,31.598,0.468732204578265,1688.740,31.598,2019-06-30 00:00:00.000,30/06/2019,2019/06/30,2019,6,30,14.811,16.787,TAYZC.jpg
1,88,TCTJL,"Tacotán, Jal.","Tacotán, Jal.",Jalisco,Jal.      ,Unión de Tula,Lerma Santiago Pacífico,-104.320278,20.036111,RI,R. Ayutla,Libre,1960,CONAGUA,1407.5,1.210,1406.290,169.000,1403.060,149.239,0.593819316280196,1388.920,149.239,2019-06-30 00:00:00.000,30/06/2019,2019/06/30,2019,6,30,88.621,60.618,TCTJL.jpg
1,138,TEMOX,"Presidente Alemán, Oax.","Temascal, Oax.",Oaxaca,Oax.      ,San Miguel Soyaltepec,Golfo Centro,-96.412222,18.232222,GH,R. Papaloapan,Contr,1955,CFE,74.79,3.500,68.500,9105.540,66.500,8828.250,0.318914847223402,52.240,8828.250,2019-06-30 00:00:00.000,30/06/2019,2019/06/30,2019,6,30,2815.460,6012.790,TEMOX.jpg
1,89,TENJL,"Tenasco, Jal.","Boquilla de Zaragoza, Jal.",Jalisco,Jal.      ,Santa María de los Ángeles,Lerma Santiago Pacífico,-103.198611,22.171944,RI,A. Tenasco,Libre,1960,CONAGUA,1777,.000,1724.840,13.850,1722.850,10.490,0.534795042897998,1718.640,10.490,2019-06-30 00:00:00.000,30/06/2019,2019/06/30,2019,6,30,5.610,4.880,TENJL.jpg
1,145,TENPB,"Tenango, Pue.","Tenango, Pue.",Puebla,Pue.      ,Huauchinango,Golfo Centro,-97.983333,20.199444,GH,R. Coacuila,Libre,1912,FENIX,1353,2.000,1351.400,46.576,1345.600,28.479,0.107131570630991,1331.330,28.479,2019-06-30 00:00:00.000,30/06/2019,2019/06/30,2019,6,30,3.051,25.428,TENPB.jpg
1,111,TEPMC,"Tepuxtepec, Mich.","Tepuxtepec, Mich.",Michoacán,Mich.     ,Contepec,Lerma Santiago Pacífico,-100.229167,20.000278,GH/RI,R. Grande,Contr,1930,FENIX,2352,2.000,2350.000,537.527,2346.560,384.330,0.457921577810736,2340.360,384.330,2019-06-30 00:00:00.000,30/06/2019,2019/06/30,2019,6,30,175.993,208.337,TEPMC.jpg
1,170,TIESL,"La Muñeca, S.L.P.","La Muñeca, S.L.P.",San Luis Potosí,S.L.P.    ,Tierra Nueva,Golfo Norte,-100.548333,21.629444,AP,R. Jofre,Libre,1981,CONAGUA,1843.75,2.000,1841.750,31.000,1837.700,24.140,0.38877381938691,1829.450,24.140,2019-06-30 00:00:00.000,30/06/2019,2019/06/30,2019,6,30,9.385,14.755,TIESL.jpg
1,90,TMLJL,"Ramón Corona Madrigal General, Jal.","Trigomil, Jal.",Jalisco,Jal.      ,Ayutla,Lerma Santiago Pacífico,-104.370278,19.976111,RI,R. Ayuquila,Libre,1993,CONAGUA,1209.34,2.940,1209.360,324.000,1201.400,250.000,0.417512,1179.150,250.000,2019-06-30 00:00:00.000,30/06/2019,2019/06/30,2019,6,30,104.378,145.622,TMLJL.jpg
1,112,TMUMC,"Tercer Mundo, Mich.","Chincua, Mich.",Michoacán,Mich.     ,Senguio,Lerma Santiago Pacífico,-100.299167,19.766389,RI,R. Chincua,Libre,1972,CONAGUA,2431.2,2.420,2428.580,17.332,2427.580,14.972,0.0476222277709551,2417.710,14.972,2019-06-30 00:00:00.000,30/06/2019,2019/06/30,2019,6,30,.713,14.259,TMUMC.jpg
1,20,TNTCH,"El Tintero, Chih.","El Tintero, Chih.",Chihuahua,Chih.     ,Buenaventura,Río Bravo,-107.384167,29.5625,RI,R. Santa María,Libre,1950,CONAGUA,1712,2.970,1709.030,216.703,1703.000,125.075,0.267919254988005,1692.150,125.075,2019-06-30 00:00:00.000,30/06/2019,2019/06/30,2019,6,30,33.510,91.565,TNTCH.jpg
1,127,TPTMX,"San Andrés Tepetitlán, Méx.","Tepetitlán,Méx.",Estado de México,Méx.      ,San Felipe del Progreso,Lerma Santiago Pacífico,-99.961389,19.660833,RI,R. San José,Libre,1964,CONAGUA,2597.38,2.920,2594.460,81.029,2592.020,59.966,0.605809962984726,2588.600,59.966,2019-06-30 00:00:00.000,30/06/2019,2019/06/30,2019,6,30,36.328,23.638,TPTMX.jpg
1,27,TRJCM,"Solidaridad, Jal.","Trojes, Jal.",Colima,Col.      ,Pihuamo,Lerma Santiago Pacífico,-103.396667,18.967222,RI,R. El Cajón,Libre,1994,CONAGUA,303.6,.000,301.110,285.740,292.370,203.390,0.474280938099218,272.140,203.390,2019-06-30 00:00:00.000,30/06/2019,2019/06/30,2019,6,30,96.464,106.926,TRJCM.jpg
1,91,TULJL,"El Tule, Jal.","Bordo Calicue, Jal.",Jalisco,Jal.      ,Arandas,Lerma Santiago Pacífico,-102.433056,20.7425,RI,R. Zula,Libre,1990,CONAGUA,1861.08,2.230,1858.850,42.000,1856.550,30.150,0.988391376451078,1856.480,30.150,2019-06-30 00:00:00.000,30/06/2019,2019/06/30,2019,6,30,29.800,.350,TULJL.jpg
1,66,TXMHD,"Taxhimay, Hgo.","Taxhimay, Hgo.",Hidalgo,Hgo.      ,Villa del Carbón,Aguas del Valle de México,-99.385278,19.834722,RI,R. San Luis de las P,Libre,1912,CONAGUA,2217.05,7.050,2216.100,47.386,2214.100,39.799,0.299655770245484,2204.820,39.799,2019-06-30 00:00:00.000,30/06/2019,2019/06/30,2019,6,30,11.926,27.873,TXMHD.jpg
1,113,UREMC,"Urepetiro, Mich.","Urepetiro, Mich.",Michoacán,Mich.     ,Tlazazalca,Lerma Santiago Pacífico,-102.137778,19.962222,RI,R. Tlazazalca,Libre,1964,CONAGUA,1752.5,1.500,1745.681,10.436,1745.001,8.282,0.312967882154069,1741.940,8.282,2019-06-30 00:00:00.000,30/06/2019,2019/06/30,2019,6,30,2.592,5.690,UREMC.jpg
1,128,VBRMX,"Valle de Bravo, Méx.","Valle de Bravo, Méx.",Estado de México,Méx.      ,Valle de Bravo,Balsas,-100.18,19.2075,AP,R. Valle de Bravo,Libre,1947,CONAGUA,1835.37,2.500,1833.000,449.420,1830.000,394.390,0.790215269149826,1825.360,394.390,2019-06-30 00:00:00.000,30/06/2019,2019/06/30,2019,6,30,311.653,82.737,VBRMX.jpg
1,25,VCRCL,"Venustiano Carranza, Coah.","Don Martín, Coah.",Coahuila,Coah.     ,Juárez,Río Bravo,-100.616111,27.515,AP/RI,R. Sabinas,Contr,1932,CONAGUA,265.8,4.000,261.800,1322.372,257.380,613.700,0.969190158057683,257.230,613.700,2019-06-30 00:00:00.000,30/06/2019,2019/06/30,2019,6,30,594.792,18.908,VCRCL.jpg
1,92,VCVJL,"Vicente C. Villaseñor, Jal.","Valle de Juárez, Jal.",Jalisco,Jal.      ,Valle de Juárez,Lerma Santiago Pacífico,-102.941667,19.939722,RI,R. Quitupan,Libre,1950,CONAGUA,1880,2.000,1878.000,18.120,1877.000,14.440,0.714404452893078,1875.840,14.440,2019-06-30 00:00:00.000,30/06/2019,2019/06/30,2019,6,30,10.316,4.124,VCVJL.jpg
1,93,VEGJL,"Ing. Santiago Camarena, Jal.","La Vega, Jal.",Jalisco,Jal.      ,Teuchitlán,Lerma Santiago Pacífico,-103.845833,20.596389,RI,R. Ameca,Libre,1960,CONAGUA,1261,2.140,1258.860,80.000,1257.000,44.035,0.519450438952239,1255.650,44.035,2019-06-30 00:00:00.000,30/06/2019,2019/06/30,2019,6,30,22.874,21.161,VEGJL.jpg
1,59,VGRGR,"Vicente Guerrero, Gro.","Palos Altos, Gro.",Guerrero,Gro.      ,Arcelia,Balsas,-100.265833,18.382778,AP/RI,R. Poliutla,Libre,1968,CONAGUA,433,2.700,430.300,300.000,425.000,249.490,0.539300172351597,413.830,249.490,2019-06-30 00:00:00.000,30/06/2019,2019/06/30,2019,6,30,134.550,114.940,VGRGR.jpg
1,187,VGRTP,"Vicente Guerrero, Tamps.","Las Adjuntas, Tamps.",Tamaulipas,Tamps.    ,Padilla,Golfo Norte,-98.666389,23.959444,AP/RI,R. Soto La Marina,Contr,1967,CONAGUA,148,4.120,144.040,5498.230,140.440,3910.690,0.66674167474282,136.710,3910.690,2019-06-30 00:00:00.000,30/06/2019,2019/06/30,2019,6,30,2607.420,1303.270,VGRTP.jpg
1,44,VHGDR,"Villa Hidalgo, Dgo.","Villa Hidalgo, Dgo.",Durango,Dgo.      ,Hidalgo,Cuencas Centrales del Norte,-104.928889,26.2425,RI,A. Cerro Gordo,Libre,1977,CONAGUA,1731.28,1.730,1729.550,39.555,1726.230,23.098,0.403195081825266,1721.860,23.098,2019-06-30 00:00:00.000,30/06/2019,2019/06/30,2019,6,30,9.313,13.785,VHGDR.jpg
1,114,VILMC,"José María Morelos y Pavón, Mich.","La Villita, Mich.",Michoacán,Mich.     ,Lázaro Cárdenas,Balsas,-102.180278,18.048333,AP/GH/RI,R. Balsas,Contr,1973,CFE,59.73,3.000,56.730,686.940,51.200,545.920,0.915372215709262,50.200,545.920,2019-06-30 00:00:00.000,30/06/2019,2019/06/30,2019,6,30,499.720,46.200,VILMC.jpg
1,204,VILZC,"José María Morelos, Zac.","La Villita, Zac.",Zacatecas,Zac.      ,Tepechitlán,Lerma Santiago Pacífico,-103.3375,21.588889,RI,A. San Pedro,Libre,1986,CONAGUA,1833.2,2.010,1831.190,11.165,1829.000,9.018,0.58726992748987,1823.860,9.018,2019-06-30 00:00:00.000,30/06/2019,2019/06/30,2019,6,30,5.296,3.722,VILZC.jpg
1,151,VNTQT,"La Venta, Qro.","La Venta, Qro.",Querétaro,Qro.      ,Pedro Escobedo,Golfo Norte,-100.190556,20.498611,RI,Dren Culebra,Libre,1907,CONAGUA,1896,.620,1907.680,3.777,1906.680,2.479,0,1904.000,2.479,2019-06-30 00:00:00.000,30/06/2019,2019/06/30,2019,6,30,.000,2.479,VNTQT.jpg
1,60,VTRGR,"Valerio Trujano, Gro.","Tepecoacuilco, Gro.",Guerrero,Gro.      ,Tepecoacuilco de Trujano,Balsas,-99.466111,18.295833,AP/RI,R. Tepecoacuilco,Libre,1964,CONAGUA,844.3,1.520,842.780,51.727,840.000,31.014,0.41184626297801,835.940,31.014,2019-06-30 00:00:00.000,30/06/2019,2019/06/30,2019,6,30,12.773,18.241,VTRGR.jpg
1,129,VVCMX,"Villa Victoria, Méx.","Villa Victoria,Méx.",Estado de México,Méx.      ,Villa Victoria,Balsas,-100.055556,19.461667,AP,R. San Juan Malacate,Libre,1944,CONAGUA,2561.96,.000,2607.500,249.943,2605.500,185.723,0.687270828061145,2603.380,185.723,2019-06-30 00:00:00.000,30/06/2019,2019/06/30,2019,6,30,127.642,58.081,VVCMX.jpg
1,115,ZICMC,"Zicuirán, Mich.","La Peña, Mich.",Michoacán,Mich.     ,La Huacana,Balsas,-101.931944,18.921111,RI,R. Zicuirán,Libre,1957,CONAGUA,302.75,1.310,301.440,47.485,299.000,36.294,0.342095124220985,291.280,36.294,2019-06-30 00:00:00.000,30/06/2019,2019/06/30,2019,6,30,12.416,23.878,ZICMC.jpg
1,67,ZMPHD,"Ing. Fernando Hiriart Balderrama, Hgo.","Zimapán, Hgo.",Hidalgo,Hgo.      ,Zimapán,Golfo Norte,-99.501111,20.663333,GH,R. Moctezuma,Contr,1990,CFE,1565,2.000,1563.000,1460.000,1560.000,1390.000,0.779992805755396,1542.500,1390.000,2019-06-30 00:00:00.000,30/06/2019,2019/06/30,2019,6,30,1084.190,305.810,ZMPHD.jpg
